<?xml version="1.0" encoding="UTF-8"?>
<livingscience>
    <country name="Algeria" population="34895000" lon="2.6173210158407" lat="28.1589384364829">
        <city name="Bab Ezzouar" lon="3.183333" lat="36.716667">
            <university domain="usthb.dz" label="University of Science and Technology, Houari Boumediene" englishName="University of Science and Technology, Houari Boumediene" nativeName="Université des Sciences et de la Technologie Houari Boumediene" weborank="3286" wiki="University of Science and Technology, Houari Boumediene" lon="3.183" lat="36.716"/>
        </city>
    </country>
    <country name="Argentina" population="40134425" lon="-65.1561041112136" lat="-35.17996429143">
        <city name="Bahía Blanca" lon="-62.266667" lat="-38.716667">
            <university domain="uns.edu.ar" label="National University of the South" englishName="National University of the South" nativeName="Universidad Nacional del Sur" weborank="1408" wiki="National University of the South" lon="-62.269444" lat="-38.701389"/>
        </city>
        <city name="Buenos Aires" lon="-58.381667" lat="-34.603333">
            <university domain="uba.ar" label="University of Buenos Aires" englishName="University of Buenos Aires" nativeName="Universidad de Buenos Aires" weborank="278" wiki="University of Buenos Aires" lon="-58.373056" lat="-34.599722"/>
            <university domain="utn.edu.ar" label="National Technological University" englishName="National Technological University" nativeName="Universidad Tecnológica Nacional" weborank="1124" wiki="National Technological University" lon="-58.372778" lat="-34.604444"/>
            <university domain="uca.edu.ar" label="Pontifical Catholic University of Argentina" englishName="Pontifical Catholic University of Argentina" nativeName="Universidad Católica Argentina" altName1="Universidad Católica Argentina Santa Maria de los Buenos Aires" weborank="1666" wiki="Pontifical Catholic University of Argentina" lon="-58.365639" lat="-34.614472"/>
            <university domain="palermo.edu" label="University of Palermo (Buenos Aires)" englishName="University of Palermo (Buenos Aires)" nativeName="Universidad de Palermo Argentina" weborank="2049" wiki="University of Palermo (Buenos Aires)" lon="-58.415969" lat="-34.597447"/>
            <university domain="salvador.edu.ar" label="Universidad del Salvador" nativeName="Universidad del Salvador Buenos Aires" weborank="2456" wiki="Universidad del Salvador"/>
            <university domain="utdt.edu" label="Torcuato di Tella University" englishName="Torcuato di Tella University" nativeName="Universidad Torcuato di Tella" weborank="3147" wiki="Torcuato di Tella University" lon="-58.445833" lat="-34.554722"/>
            <university domain="uade.edu.ar" label="Universidad Argentina de la Empresa" nativeName="Universidad Argentina de la Empresa" weborank="4218" wiki="Universidad Argentina de la Empresa" lon="-58.381726" lat="-34.616696"/>
        </city>
        <city name="Córdoba, Argentina" lon="-64.183333" lat="-31.416667">
            <university domain="unc.edu.ar" label="National University of Córdoba" englishName="National University of Córdoba" nativeName="Universidad Nacional de Cordoba" weborank="588" wiki="National University of Córdoba" lon="-64.187778" lat="-31.4375"/>
        </city>
        <city name="La Plata" lon="-57.954444" lat="-34.921111">
            <university domain="unlp.edu.ar" label="National University of La Plata" englishName="National University of La Plata" nativeName="Universidad Nacional de la Plata" weborank="500" wiki="National University of La Plata" lon="-57.951356" lat="-34.912969"/>
        </city>
        <city name="Lanus" lon="-58.4" lat="-34.7">
            <university domain="unlam.edu.ar" label="National University of La Matanza" englishName="National University of La Matanza" nativeName="Universidad Nacional de la Matanza" weborank="4187" wiki="National University of La Matanza" lon="-58.562778" lat="-34.670556"/>
        </city>
        <city name="Luján, Buenos Aires Province" lon="-59.1" lat="-34.566667">
            <university domain="unlu.edu.ar" label="National University of Luján" englishName="National University of Luján" nativeName="Universidad Nacional de Luján " weborank="3767" wiki="National University of Luján" lon="-59.087222" lat="-34.578056"/>
        </city>
        <city name="Posadas, Misiones" lon="-55.883333" lat="-27.366667">
            <university domain="unam.edu.ar" label="National University of Misiones" englishName="National University of Misiones" nativeName="Universidad Nacional de Misiones" weborank="2973" wiki="National University of Misiones" lon="-55.888056" lat="-27.434722"/>
        </city>
        <city name="Quilmes" lon="-58.266667" lat="-34.716667">
            <university domain="unq.edu.ar" label="National University of Quilmes" englishName="National University of Quilmes" nativeName="Universidad Nacional de Quilmes" weborank="2304" wiki="National University of Quilmes"/>
        </city>
        <city name="Río Cuarto, Córdoba" lon="-64.35" lat="-33.133333">
            <university domain="unrc.edu.ar" label="National University of Río Cuarto" englishName="National University of Río Cuarto" nativeName="Universidad Nacional de Río Cuarto" weborank="1716" wiki="National University of Río Cuarto" lon="-64.300511" lat="-33.109499"/>
        </city>
        <city name="San Luis, Argentina" lon="-66.333333" lat="-33.3">
            <university domain="unsl.edu.ar" label="National University of San Luis" englishName="National University of San Luis" nativeName="Universidad Nacional de San Luis" weborank="1243" wiki="National University of San Luis"/>
        </city>
        <city name="San Miguel de Tucumán" lon="-65.216667" lat="-26.833056">
            <university domain="unt.edu.ar" label="National University of Tucumán" englishName="National University of Tucumán" nativeName="Universidad Nacional de Tucumán" weborank="1513" wiki="National University of Tucumán"/>
            <university domain="unsta.edu.ar" label="Saint Thomas Aquinas University of the North" englishName="Saint Thomas Aquinas University of the North" nativeName="Universidad del Norte Santo Tomás de Aquino" weborank="3451" wiki="Saint Thomas Aquinas University of the North" lon="-65.184722" lat="-26.833889"/>
        </city>
        <city name="Santa Rosa, La Pampa" lon="-64.283333" lat="-36.616667">
            <university domain="unlpam.edu.ar" label="National University of La Pampa" englishName="National University of La Pampa" nativeName="Universidad Nacional de la Pampa" weborank="3266" wiki="National University of La Pampa"/>
        </city>
        <city name="Santiago del Estero" lon="-64.266667" lat="-27.783333">
            <university domain="unse.edu.ar" label="National University of Santiago del Estero" englishName="National University of Santiago del Estero" nativeName="Universidad Nacional de Santiago del Estero" weborank="4405" wiki="National University of Santiago del Estero"/>
        </city>
        <city name="Vicente López" lon="-58.466667" lat="-34.516667">
            <university domain="unsam.edu.ar" label="National University of General San Martín" englishName="National University of General San Martín" nativeName="Universidad Nacional de San Martín Argentina" weborank="1607" wiki="National University of General San Martín" lon="-58.526667" lat="-34.579722"/>
        </city>
    </country>
    <country name="Armenia" population="3238000" lon="44.9292202631856" lat="40.2899793359551">
        <city name="Yerevan" lon="44.516667" lat="40.183333">
            <university domain="aua.am" label="American University of Armenia" englishName="American University of Armenia" weborank="2982" wiki="American University of Armenia" lon="44.504517" lat="40.193292"/>
        </city>
    </country>
    <country name="Australia" population="22394049" lon="142.146646527116" lat="-10.1146837432371">
        <city name="Adelaide" lon="138.601" lat="-34.929">
            <university domain="adelaide.edu.au" label="University of Adelaide" englishName="University of Adelaide" weborank="280" therank="201" wiki="University of Adelaide" lon="138.60414" lat="-34.919159"/>
            <university domain="unisa.edu.au" label="University of South Australia" englishName="University of South Australia" weborank="527" therank="350" wiki="University of South Australia" lon="138.60678" lat="-34.92049"/>
            <university domain="flinders.edu.au" label="Flinders University" englishName="Flinders University" altName1="Flinders University of South Australia" weborank="722" therank="350" wiki="Flinders University" lon="138.57275" lat="-35.020819"/>
        </city>
        <city name="Albury-Wodonga" lon="146.90974" lat="-36.08422">
            <university domain="csu.edu.au" label="Charles Sturt University" englishName="Charles Sturt University" weborank="671" wiki="Charles Sturt University"/>
        </city>
        <city name="Armidale" lon="151.665" lat="-30.515">
            <university domain="une.edu.au" label="University of New England (Australia)" englishName="University of New England Australia" altName1="University of New England" weborank="740" wiki="University of New England (Australia)" lon="151.643" lat="-30.4867"/>
        </city>
        <city name="Ballarat" lon="143.85" lat="-37.55">
            <university domain="ballarat.edu.au" label="University of Ballarat" englishName="University of Ballarat" weborank="1504" wiki="University of Ballarat" lon="143.846" lat="-37.5761"/>
        </city>
        <city name="Brisbane" lon="153.027778" lat="-27.467778">
            <university domain="uq.edu.au" label="University of Queensland" englishName="University of Queensland Australia" weborank="105" therank="74" wiki="University of Queensland" lon="153.012778" lat="-27.497778"/>
            <university domain="qut.edu.au" label="Queensland University of Technology" englishName="Queensland University of Technology" weborank="371" therank="276" wiki="Queensland University of Technology" lon="153.028056" lat="-27.476944"/>
            <university domain="griffith.edu.au" label="Griffith University" englishName="Griffith University" weborank="609" therank="350"/>
            <university domain="acu.edu.au" label="Australian Catholic University" englishName="Australian Catholic University" weborank="1826" wiki="Australian Catholic University" lon="153.089" lat="-27.378"/>
        </city>
        <city name="Canberra" lon="149.124444" lat="-35.308056">
            <university domain="anu.edu.au" label="ANU College of Physical" englishName="Australian National University" altName1="Australian National University" weborank="71" therank="38" wiki="ANU College of Physical"/>
            <university domain="canberra.edu.au" label="University of Canberra" englishName="University of Canberra" weborank="1846" wiki="University of Canberra" lon="149.0875" lat="-35.238889"/>
        </city>
        <city name="Darwin, Northern Territory" lon="130.833333" lat="-12.45">
            <university domain="cdu.edu.au" label="Charles Darwin University" englishName="Charles Darwin University" weborank="1351" therank="301" wiki="Charles Darwin University" lon="130.883611" lat="-12.373056"/>
        </city>
        <city name="Geelong, Victoria" lon="144.35" lat="-38.15">
            <university domain="deakin.edu.au" label="Deakin University" englishName="Deakin University" weborank="776" therank="350" wiki="Deakin University" lon="144.3603" lat="-38.1439"/>
        </city>
        <city name="Gold Coast, Queensland" lon="153.55" lat="-28.1667">
            <university domain="bond.edu.au" label="Bond University" englishName="Bond University" weborank="2207" wiki="Bond University" lon="153.416489" lat="-28.073983"/>
        </city>
        <city name="Hobart, Tasmania" lon="147.316667" lat="-42.866667">
            <university domain="utas.edu.au" label="University of Tasmania" englishName="University of Tasmania" weborank="575" therank="301" wiki="University of Tasmania"/>
        </city>
        <city name="Lismore, New South Wales" lon="153.283333" lat="-28.816667">
            <university domain="scu.edu.au" label="Southern Cross University" englishName="Southern Cross University" weborank="1436" wiki="Southern Cross University"/>
        </city>
        <city name="Melbourne" lon="144.963056" lat="-37.813611">
            <university domain="unimelb.edu.au" label="University of Melbourne" englishName="University of Melbourne" weborank="78" therank="37" wiki="University of Melbourne" lon="144.9614" lat="-37.7963"/>
            <university domain="monash.edu.au" label="Monash University" englishName="Monash University" weborank="118" therank="117" wiki="Monash University" lon="145.138" lat="-37.9083"/>
            <university domain="latrobe.edu.au" label="La Trobe University" englishName="La Trobe University" weborank="544" therank="350"/>
            <university domain="rmit.edu.au" label="Working Men's College of Melbourne" englishName="RMIT University" altName1="Royal Melbourne Institute of Technology" weborank="441" wiki="Working Men's College of Melbourne" lon="144.9653" lat="-37.8073"/>
            <university domain="vu.edu.au" label="Victoria University" englishName="Victoria University" weborank="704"/>
            <university domain="fit.edu" label="Florida Institute of Technology" englishName="Florida Institute of Technology" weborank="798"/>
            <university domain="mbs.edu" label="Melbourne Business School" weborank="2930" wiki="Melbourne Business School"/>
        </city>
        <city name="Newcastle, New South Wales" lon="151.75" lat="-32.916667">
            <university domain="newcastle.edu.au" label="University of Newcastle, Australia" englishName="The University of Newcastle" altName1="University of Newcastle" weborank="547" therank="276" wiki="University of Newcastle, Australia" lon="151.704444" lat="-32.892778"/>
        </city>
        <city name="Perth, Western Australia" lon="115.858889" lat="-31.952222">
            <university domain="uwa.edu.au" label="University of Western Australia" englishName="University of Western Australia" weborank="345" therank="189"/>
            <university domain="curtin.edu.au" label="Curtin University" englishName="Curtin University" altName1="Curtin University of Technology" weborank="577" therank="350" wiki="Curtin University" lon="115.89405" lat="-32.00469"/>
            <university domain="murdoch.edu.au" label="Murdoch University" englishName="Murdoch University" weborank="599" wiki="Murdoch University" lon="115.83508" lat="-32.06652"/>
            <university domain="ecu.edu.au" label="Edith Cowan University" englishName="Edith Cowan University" weborank="1110" wiki="Edith Cowan University" lon="115.866449" lat="-31.919783"/>
            <university domain="nd.edu.au" label="University of Notre Dame Australia" englishName="University of Notre Dame Australia" weborank="3705" wiki="University of Notre Dame Australia" lon="115.743611" lat="-32.056667"/>
        </city>
        <city name="Sydney" lon="151.211111" lat="-33.859972">
            <university domain="unsw.edu.au" label="University of New South Wales" englishName="University of New South Wales" weborank="148" therank="173"/>
            <university domain="usyd.edu.au" label="University of Sydney" englishName="University of Sydney" weborank="164" therank="58" wiki="University of Sydney" lon="151.187222" lat="-33.887778"/>
            <university domain="mq.edu.au" label="Macquarie University" englishName="Macquarie University" weborank="257" therank="226" wiki="Macquarie University" lon="151.112915" lat="-33.775259"/>
            <university domain="uts.edu.au" label="University of Technology, Sydney" englishName="University of Technology Sydney" weborank="477" wiki="University of Technology, Sydney" lon="151.200833" lat="-33.883611"/>
            <university domain="uws.edu.au" label="University of Western Sydney" englishName="University of Western Sydney" weborank="801"/>
        </city>
        <city name="Toowoomba" lon="151.95" lat="-27.55">
            <university domain="usq.edu.au" label="University of Southern Queensland" englishName="University of Southern Queensland" weborank="684" wiki="University of Southern Queensland" lon="151.932" lat="-27.6042"/>
        </city>
        <city name="Townsville, Queensland" lon="146.818333" lat="-19.256389">
            <university domain="jcu.edu.au" label="James Cook University" englishName="James Cook University" weborank="663" wiki="James Cook University" lon="146.757" lat="-19.328"/>
        </city>
        <city name="Wollongong, New South Wales" lon="150.883056" lat="-34.433056">
            <university domain="uow.edu.au" label="University of Wollongong" englishName="University of Wollongong" weborank="542" therank="251" wiki="University of Wollongong" lon="150.879444" lat="-34.406667"/>
        </city>
    </country>
    <country name="Austria" population="8372930" lon="14.1264780862004" lat="47.5854984701283">
        <city name="Graz" lon="15.438889" lat="47.070278">
            <university domain="uni-graz.at" label="University of Graz" englishName="University of Graz" nativeName="Karl-Franzens-Universität Graz" altName1="Karl Franzens Universität Graz" weborank="460" therank="251" wiki="University of Graz" lon="15.449167" lat="47.078056"/>
        </city>
        <city name="Innsbruck" lon="11.383333" lat="47.266667">
            <university domain="i-med.ac.at" label="Innsbruck Medical University" englishName="Innsbruck Medical University" nativeName="Medizinische Universität Innsbruck" weborank="1482" wiki="Innsbruck Medical University" lon="11.385556" lat="47.262222"/>
        </city>
        <city name="Krems an der Donau" lon="15.610278" lat="48.410833">
            <university domain="donau-uni.ac.at" label="Danube University Krems" englishName="Danube University Krems" nativeName="Donau Universität Krems Universität für Weiterbildung" altName1="Donau-Universität Krems" weborank="2799" wiki="Danube University Krems" lon="15.585" lat="48.407778"/>
        </city>
        <city name="Linz" lon="14.290556" lat="48.303056">
            <university domain="uni-linz.ac.at" altDomain="jku.at" label="Johannes Kepler Universität Linz" nativeName="Johannes Kepler Universität Linz" altName1="Universität Linz" weborank="692" therank="251"/>
            <university domain="ufg.ac.at" label="University of Arts and Industrial Design Linz" englishName="University of Arts and Industrial Design Linz" nativeName="Kunstuniversität Linz" weborank="4465" wiki="University of Arts and Industrial Design Linz" lon="14.286" lat="48.307"/>
        </city>
        <city name="Salzburg" lon="13.033333" lat="47.8">
            <university domain="uni-salzburg.at" label="University of Salzburg" englishName="University of Salzburg" nativeName="Universität Salzburg" weborank="1349" wiki="University of Salzburg" lon="13.048056" lat="47.797222"/>
        </city>
        <city name="Vienna" lon="16.3725" lat="48.208889">
            <university domain="univie.ac.at" label="University of Vienna" englishName="University of Vienna" nativeName="Universität Wien" altName1="Universität Vienna" weborank="81" therank="139" wiki="University of Vienna" lon="16.359722" lat="48.213056"/>
            <university domain="tuwien.ac.at" label="Vienna University of Technology" englishName="Vienna University of Technology" nativeName="Technische Universität Wien" weborank="158" therank="301" wiki="Vienna University of Technology" lon="16.37" lat="48.198889"/>
            <university domain="boku.ac.at" label="Universität fur Bodenkultur Wien" nativeName="Universität fur Bodenkultur Wien" weborank="756"/>
            <university domain="meduniwien.ac.at" label="Medical University of Vienna" englishName="Medical University of Vienna" nativeName="Medizinische Universität Wien" weborank="1320" wiki="Medical University of Vienna" lon="16.351389" lat="48.22"/>
            <university domain="wu.ac.at" label="Vienna University of Economics and Business" englishName="Vienna University of Economics and Business" nativeName="Wirtschaftsuniversität Wien" weborank="1590" wiki="Vienna University of Economics and Business" lon="16.357778" lat="48.2325"/>
            <university domain="modul.ac.at" label="MODUL University Vienna" englishName="MODUL University" weborank="4788" wiki="MODUL University Vienna" lon="16.33575" lat="48.274722"/>
        </city>
    </country>
    <country name="Bangladesh" population="162221000" lon="90.224055619071" lat="23.897512355589">
        <city name="Dhaka" lon="90.375" lat="23.7">
            <university domain="buet.ac.bd" label="Bangladesh University of Engineering and Technology" englishName="Bangladesh University of Engineering and Technology" altName1="Bangladesh University of Engineering and Technology (BUET)" weborank="2108" wiki="Bangladesh University of Engineering and Technology" lon="90.392858" lat="23.726996"/>
            <university domain="bracu.ac.bd" label="BRAC University" englishName="Brac University" weborank="4389" wiki="BRAC University" lon="90.407175" lat="23.780194"/>
        </city>
    </country>
    <country name="Belarus" population="9473600" lon="28.0320871145918" lat="53.5313115529494" altName1="byelarus">
        <city name="Minsk" lon="27.566667" lat="53.9">
            <university domain="bsu.by" label="Belarusian State University" englishName="Belarusian State University" weborank="1208" wiki="Belarusian State University"/>
            <university domain="bsuir.by" label="Belarusian State University of Informatics and Radioelectronics" englishName="Belarusian State University of Informatics and Radioelectronics" weborank="3889" wiki="Belarusian State University of Informatics and Radioelectronics" lon="27.594722" lat="53.917778"/>
        </city>
    </country>
    <country name="Belgium" population="10827519" lon="4.64064572249488" lat="50.6398143510773">
        <city name="Antwerp" lon="4.4" lat="51.216667">
            <university domain="ua.ac.be" label="University of Antwerp" englishName="University of Antwerp" nativeName="Universiteit Antwerpen" weborank="463" therank="276" wiki="University of Antwerp" lon="4.41" lat="51.222778"/>
            <university domain="itg.be" label="Institute of Tropical Medicine Antwerp" englishName="Institute of Tropical Medicine Antwerp" weborank="1731" wiki="Institute of Tropical Medicine Antwerp"/>
            <university domain="lessius.eu" label="Lessius Hogeschool" englishName="Lessius Hogeschool (Lessius University College)" weborank="4527" wiki="Lessius Hogeschool"/>
            <university domain="artesis.be" label="Artesis Hogeschool Antwerpen" weborank="4982" wiki="Artesis Hogeschool Antwerpen"/>
        </city>
        <city name="Brussels" lon="4.35" lat="50.85">
            <university domain="ulb.ac.be" label="Université Libre de Bruxelles" nativeName="Université Libre de Bruxelles" weborank="269" therank="201" wiki="Université Libre de Bruxelles" lon="4.381111" lat="50.811667"/>
            <university domain="vub.ac.be" label="Vrije Universiteit Brussel" englishName="Free University of Brussels" nativeName="Vrije Universiteit Brussel" altName1="Vrije Universiteit Brussel VUB" weborank="409" therank="301" wiki="Vrije Universiteit Brussel" lon="4.39573" lat="50.82242"/>
            <university domain="kent.ac.uk" label="Brussels School of International Studies" englishName="University of Kent" altName1="University of Kent" weborank="433" therank="350" wiki="Brussels School of International Studies"/>
            <university domain="hubrussel.be" label="Hogeschool-Universiteit Brussel" englishName="Hogeschool Universiteit Brussel (Catholic University of Brussels)" nativeName="Hogeschool-Universiteit Brussel" weborank="4036" wiki="Hogeschool-Universiteit Brussel"/>
            <university domain="fusl.ac.be" label="Facultés universitaires Saint-Louis" altName1="Facultes Universitaires Saint Louis a Bruxelles" weborank="4972" wiki="Facultés universitaires Saint-Louis" lon="4.361275" lat="50.853114"/>
        </city>
        <city name="Ghent" lon="3.733333" lat="51.05">
            <university domain="ugent.be" label="Ghent University" englishName="Ghent University" nativeName="Universiteit Gent" weborank="214" therank="106" wiki="Ghent University" lon="3.7275" lat="51.046111"/>
            <university domain="hogent.be" label="Hogeschool Gent" weborank="2172" wiki="Hogeschool Gent"/>
        </city>
        <city name="Leuven" lon="4.7" lat="50.883333">
            <university domain="kuleuven.be" label="Katholieke Universiteit Leuven" englishName="Catholic University of Leuven" nativeName="Katholieke Universiteit Leuven" weborank="162" therank="67" wiki="Katholieke Universiteit Leuven" lon="4.700644" lat="50.877856"/>
            <university domain="ucl.ac.be" altDomain="uclouvain.be" label="Université Catholique de Louvain" nativeName="Université Catholique de Louvain" weborank="216" therank="169"/>
        </city>
        <city name="Liège" lon="5.566667" lat="50.633333">
            <university domain="ulg.ac.be" label="University of Liège" englishName="University of Liège" nativeName="Université de Liège" altName1="Université de Liège" weborank="298" therank="301" wiki="University of Liège" lon="5.574722" lat="50.640833"/>
        </city>
        <city name="Mons" lon="3.95" lat="50.45">
            <university domain="umons.ac.be" label="University of Mons" englishName="University of Mons" nativeName="Université de Mons (Université de Mons-Hainaut)" weborank="2595" wiki="University of Mons" lon="3.953098" lat="50.458432"/>
        </city>
        <city name="Namur (city)" lon="4.866667" lat="50.466667">
            <university domain="fundp.ac.be" label="Facultés universitaires Notre-Dame de la Paix" nativeName="Facultes Universitaires Notre Dame de la Paix" weborank="950" wiki="Facultés universitaires Notre-Dame de la Paix" lon="4.860378" lat="50.466333"/>
        </city>
    </country>
    <country name="Benin" population="8935000" lon="2.32784526833016" lat="9.64175330688162">
        <city name="Lagos" lon="3.395833" lat="6.453056">
            <university domain="unilag.edu.ng" label="University of Lagos" englishName="University of Lagos" weborank="3942" wiki="University of Lagos" lon="3.386111" lat="6.516667"/>
        </city>
    </country>
    <country name="Bosnia and Herzegovina" population="3767000" lon="17.7687658778336" lat="44.1744991186853" altName1="bosnia &amp; herceg">
        <city name="Sarajevo" lon="18.416667" lat="43.866667">
            <university domain="unsa.ba" label="University of Sarajevo" englishName="University of Sarajevo" weborank="2322" wiki="University of Sarajevo"/>
        </city>
        <city name="Tuzla" lon="18.676111" lat="44.538056">
            <university domain="untz.ba" label="University of Tuzla" englishName="University of Tuzla" weborank="4127" wiki="University of Tuzla" lon="18.666111" lat="44.538611"/>
        </city>
        <city name="Zenica" lon="17.933333" lat="44.2">
            <university domain="unze.ba" label="University of Zenica" englishName="University of Zenica" weborank="4142" wiki="University of Zenica"/>
        </city>
    </country>
    <country name="Botswana" population="1950000" lon="23.7985372981283" lat="-22.1840203129252">
        <city name="Gaborone" lon="25.912222" lat="-24.658056">
            <university domain="ub.bw" label="University of Botswana" englishName="University of Botswana" weborank="2352" wiki="University of Botswana" lon="25.933333" lat="-24.666667"/>
        </city>
    </country>
    <country name="Brazil" population="193117000" lon="-53.1169371040539" lat="-10.8404755532788">
        <city name="Apucarana" lon="-51.460833" lat="-23.550833">
            <university domain="utfpr.edu.br" label="Federal Technological University of Paraná" englishName="Federal Technological University of Paraná" nativeName="Universidade Tecnológica Federal do Paraná" weborank="1233" wiki="Federal Technological University of Paraná"/>
        </city>
        <city name="Belo Horizonte" lon="-43.938667" lat="-19.919133">
            <university domain="ufmg.br" label="Universidade Federal de Minas Gerais" nativeName="Universidade Federal de Minas Gerais" weborank="265" wiki="Universidade Federal de Minas Gerais" lon="-43.966248" lat="-19.871904"/>
        </city>
        <city name="Brasília" lon="-47.9" lat="-15.8">
            <university domain="unb.br" label="Universidade de Brasília" nativeName="Universidade de Brasília" weborank="323"/>
        </city>
        <city name="Campinas" lon="-47.057222" lat="-22.900833">
            <university domain="unicamp.br" label="State University of Campinas" englishName="State University of Campinas" nativeName="Universidade Estadual de Campinas" weborank="158" therank="276"/>
        </city>
        <city name="Campos dos Goytacazes" lon="-41.323889" lat="-21.753889">
            <university domain="uenf.br" label="State University of Norte Fluminense" englishName="State University of Norte Fluminense" nativeName="Universidade Estadual do Norte Fluminense Darcy Ribeiro" altName1="Universidade Estadual do Norte Fluminense" weborank="2348" wiki="State University of Norte Fluminense"/>
        </city>
        <city name="Canoas" lon="-51.18" lat="-29.92">
            <university domain="ulbra.br" label="Universidade Luterana do Brasil" nativeName="Universidade Luterana do Brasil" weborank="1612" wiki="Universidade Luterana do Brasil"/>
        </city>
        <city name="Curitiba" lon="-49.25" lat="-25.416667">
            <university domain="ufpr.br" label="Federal University of Paraná" englishName="Federal University of Paraná" nativeName="Universidade Federal do Paraná" weborank="384" wiki="Federal University of Paraná" lon="-49.2675" lat="-25.428889"/>
        </city>
        <city name="Florianópolis" lon="-48.416667" lat="-27.833333">
            <university domain="ufsc.br" label="Universidade Federal de Santa Catarina" nativeName="Universidade Federal de Santa Catarina" weborank="206"/>
        </city>
        <city name="Goiânia" lon="-49.25" lat="-16.666667">
            <university domain="ufg.br" label="Universidade Federal de Goiás" nativeName="Universidade Federal de Goiás" weborank="1045" wiki="Universidade Federal de Goiás"/>
        </city>
        <city name="Manaus" lon="-60.016667" lat="-3.1">
            <university domain="ufam.edu.br" label="Federal University of Amazonas" englishName="Federal University of Amazonas" nativeName="Universidade Federal de Amazonas" weborank="1562" wiki="Federal University of Amazonas"/>
        </city>
        <city name="Maringá" lon="-51.916667" lat="-23.4">
            <university domain="uem.br" label="Universidade Estadual de Maringá" nativeName="Universidade Estadual de Maringá" weborank="998"/>
        </city>
        <city name="Niterói" lon="-43.103889" lat="-22.882778">
            <university domain="uff.br" label="Universidade Federal Fluminense" nativeName="Universidade Federal Fluminense" weborank="476"/>
        </city>
        <city name="Nôvo Hamburgo" lon="-51.130833" lat="-29.677778">
            <university domain="feevale.br" label="Universidade Feevale" nativeName="Universidade Feevale" weborank="3423" wiki="Universidade Feevale" lon="-51.119167" lat="-29.665833"/>
        </city>
        <city name="Pelotas" lon="-52.3425" lat="-31.771944">
            <university domain="ufpel.edu.br" label="Universidade Federal de Pelotas" nativeName="Universidade Federal de Pelotas" weborank="1289" wiki="Universidade Federal de Pelotas"/>
        </city>
        <city name="Porto Alegre" lon="-51.23" lat="-30.033056">
            <university domain="ufrgs.br" label="Universidade Federal do Rio Grande do Sul" nativeName="Universidade Federal do Rio Grande do Sul" weborank="150" wiki="Universidade Federal do Rio Grande do Sul" lon="-51.219313" lat="-30.032439"/>
            <university domain="pucrs.br" label="Pontificia Universidade Católica do Rio Grande do Sul" nativeName="Pontificia Universidade Católica do Rio Grande do Sul" weborank="550"/>
        </city>
        <city name="Pouso Alegre" lon="-45.933611" lat="-22.228056">
            <university domain="inatel.br" label="Inatel" nativeName="Instituto Nacional de Telecomunicaçoes" weborank="4409" wiki="Inatel" lon="-45.696111" lat="-22.257222"/>
        </city>
        <city name="Recife" lon="-34.9" lat="-8.05">
            <university domain="ufpe.br" label="Universidade Federal de Pernambuco" nativeName="Universidade Federal de Pernambuco" weborank="495"/>
        </city>
        <city name="Rio de Janeiro" lon="-43.196389" lat="-22.908333">
            <university domain="ufrj.br" label="Federal University of Rio de Janeiro" englishName="Federal University of Rio de Janeiro" nativeName="Universidade Federal do Rio de Janeiro" weborank="170" wiki="Federal University of Rio de Janeiro" lon="-43.223889" lat="-22.8625"/>
            <university domain="puc-rio.br" label="Pontificia Universidade Católica do Rio de Janeiro" nativeName="Pontificia Universidade Católica do Rio de Janeiro" weborank="517"/>
            <university domain="fgv.br" label="Fundação Getúlio Vargas" altName1="Fundação Getulio Vargas" weborank="844" wiki="Fundação Getúlio Vargas"/>
            <university domain="estacio.br" label="Estácio de Sá University" englishName="Estácio de Sá University" nativeName="Universidade Estácio de Sá" weborank="2428" wiki="Estácio de Sá University"/>
            <university domain="cefet-rj.br" label="Centro Federal de Educação Tecnológica Celso Suckow da Fonseca" nativeName="Centro Federal de Educação Tecnológica Celso Suckow do Fonseca" weborank="4951" wiki="Centro Federal de Educação Tecnológica Celso Suckow da Fonseca"/>
        </city>
        <city name="Santa Maria, Rio Grande do Sul" lon="-53.8" lat="-29.683333">
            <university domain="ufsm.br" label="Universidade Federal de Santa Maria" nativeName="Universidade Federal de Santa Maria" weborank="1023" wiki="Universidade Federal de Santa Maria"/>
        </city>
        <city name="Santo André" lon="-46.533333" lat="-23.657222">
            <university domain="ufabc.edu.br" label="Universidade Federal do ABC" nativeName="Universidade Federal do ABC" weborank="2401" wiki="Universidade Federal do ABC" lon="-46.528012" lat="-23.644957"/>
        </city>
        <city name="São Bernardo do Campo" lon="-46.55" lat="-23.7">
            <university domain="uniban.br" label="Universidade Bandeirante de São Paulo" nativeName="Universidade Bandeirante de São Paulo" weborank="4902" wiki="Universidade Bandeirante de São Paulo"/>
        </city>
        <city name="São Caetano do Sul" lon="-46.55" lat="-23.7">
            <university domain="uscs.edu.br" label="Universidade Municipal de São Caetano do Sul" nativeName="Universidade Municipal de São Caetano do Sul" weborank="4730" wiki="Universidade Municipal de São Caetano do Sul"/>
        </city>
        <city name="São José dos Campos" lon="-45.878611" lat="-23.186389">
            <university domain="ita.br" label="Instituto Tecnológico de Aeronáutica" nativeName="Instituto Tecnológico de Aeronáutica" weborank="2641" wiki="Instituto Tecnológico de Aeronáutica" lon="-45.876781" lat="-23.210133"/>
        </city>
        <city name="São Paulo" lon="-46.633333" lat="-23.55">
            <university domain="usp.br" label="University of São Paulo" englishName="University of São Paulo" nativeName="Universidade de São Paulo" weborank="43" therank="178"/>
            <university domain="unesp.br" label="Universidade Estadual Paulista Júlio de Mesquita Filho" nativeName="Universidade Estadual Paulista Júlio de Mesquita Filho" altName1="Universidade Estadual Paulista" weborank="260" wiki="Universidade Estadual Paulista Júlio de Mesquita Filho"/>
            <university domain="mackenzie.br" label="Universidade Presbiteriana Mackenzie" nativeName="Universidade Presbiteriana Mackenzie" altName1="Universidade Mackenzie" weborank="1745" wiki="Universidade Presbiteriana Mackenzie"/>
            <university domain="faap.br" label="Fundação Armando Alvares Penteado" altName1="FAAP - Fundação Armando Alvares Penteado" weborank="3648" wiki="Fundação Armando Alvares Penteado"/>
            <university domain="usjt.br" label="Universidade São Judas Tadeu" nativeName="Universidade São Judas Tadeu" weborank="4795" wiki="Universidade São Judas Tadeu"/>
        </city>
    </country>
    <country name="Bulgaria" population="7576751" lon="25.2155232705412" lat="42.7688998818685">
        <city name="Blagoevgrad" lon="23.1" lat="42.016667">
            <university domain="uni-sofia.bg" label="Sofia University Saint Kliment Ohridski" englishName="Sofia University Saint Kliment Ohridski" altName1="Sofia University St. Kliment Ohridski" weborank="754"/>
            <university domain="swu.bg" label="South-West University" englishName="South-West University Neofit Rilski" weborank="4108" wiki="South-West University"/>
        </city>
        <city name="Plovdiv" lon="24.75" lat="42.15">
            <university domain="uni-plovdiv.bg" label="Plovdiv University" englishName="Plovdiv University" altName1="University of Plovdiv" weborank="2629" wiki="Plovdiv University" lon="24.750833" lat="42.138056"/>
        </city>
        <city name="Sofia" lon="23.333333" lat="42.7">
            <university domain="tu-sofia.bg" label="Technical University of Sofia" englishName="Technical University of Sofia" weborank="2073" wiki="Technical University of Sofia" lon="23.355556" lat="42.657222"/>
            <university domain="unwe.acad.bg" label="University of National and World Economy" englishName="University of National and World Economy" weborank="2440" wiki="University of National and World Economy" lon="23.348611" lat="42.650833"/>
            <university domain="mu-sofia.bg" label="Sofia Medical University" englishName="Medical University of Sofia" weborank="3623" wiki="Sofia Medical University" lon="23.307222" lat="42.683333"/>
        </city>
        <city name="Stara Zagora" lon="25.65" lat="42.433333">
            <university domain="uni-sz.bg" label="Trakia University" englishName="Trakia University Stara Zagora" weborank="4507" wiki="Trakia University" lon="25.571389" lat="42.398333"/>
        </city>
    </country>
    <country name="Canada" population="34148000" lon="-78.053022520524" lat="80.3018050193766">
        <city name="Athabasca, Alberta" lon="-113.285556" lat="54.719722">
            <university domain="athabascau.ca" label="Athabasca University Research Centre" englishName="Athabasca University" weborank="944" wiki="Athabasca University Research Centre"/>
        </city>
        <city name="Bible Hill, Nova Scotia" lon="-63.260278" lat="45.375556">
            <university domain="nsac.ca" label="Nova Scotia Agricultural College" weborank="4537" wiki="Nova Scotia Agricultural College" lon="-63.257222" lat="45.370833"/>
        </city>
        <city name="Brandon, Manitoba" lon="-99.95" lat="49.9">
            <university domain="brandonu.ca" label="Brandon Bobcats" englishName="Brandon University" weborank="2482" wiki="Brandon Bobcats"/>
        </city>
        <city name="Burnaby" lon="-122.966667" lat="49.266667">
            <university domain="sfu.ca" label="Simon Fraser University" englishName="Simon Fraser University" weborank="42" therank="226" wiki="Simon Fraser University" lon="-122.917957" lat="49.276765"/>
        </city>
        <city name="Calgary, Alberta" lon="-114.057222" lat="51.045">
            <university domain="ucalgary.ca" label="University of Calgary" englishName="University of Calgary" weborank="93" therank="226" wiki="University of Calgary" lon="-114.133056" lat="51.0775"/>
        </city>
        <city name="Charlottetown" lon="-63.15" lat="46.233333">
            <university domain="upei.ca" label="Atlantic Veterinary College" englishName="University of Prince Edward Island" weborank="1677" wiki="Atlantic Veterinary College"/>
        </city>
        <city name="Edmonton, Alberta" lon="-113.516667" lat="53.566667">
            <university domain="ualberta.ca" label="Population Research Laboratory" englishName="University of Alberta" altName1="University of Alberta" weborank="62" therank="100" wiki="Population Research Laboratory"/>
            <university domain="macewan.ca" label="Grant MacEwan University" englishName="Grant MacEwan University" altName1="Grant MacEwan College" weborank="3687" wiki="Grant MacEwan University" lon="-113.589325" lat="53.540117"/>
            <university domain="concordia.ab.ca" label="Concordia University College of Alberta" englishName="Concordia University College of Alberta" weborank="4273" wiki="Concordia University College of Alberta" lon="-113.444" lat="53.559"/>
            <university domain="nait.ca" label="Northern Alberta Institute of Technology" englishName="Nothern Alberta Institute of Technology" weborank="4277" wiki="Northern Alberta Institute of Technology" lon="-113.503231" lat="53.569583"/>
        </city>
        <city name="Fredericton" lon="-66.647818" lat="45.957319">
            <university domain="unb.ca" label="University of New Brunswick" englishName="University of New Brunswick" weborank="454" wiki="University of New Brunswick" lon="-66.641" lat="45.946"/>
        </city>
        <city name="Gatineau" lon="-75.710556" lat="45.427778">
            <university domain="uqo.ca" label="Université du Québec en Outaouais" nativeName="Université du Québec Outaouais" weborank="2100" wiki="Université du Québec en Outaouais" lon="-75.738944" lat="45.422233"/>
        </city>
        <city name="Grande Prairie" lon="-118.794722" lat="55.170833">
            <university domain="gprc.ab.ca" label="Grande Prairie Regional College" weborank="4346" wiki="Grande Prairie Regional College" lon="-118.801297" lat="55.176492"/>
        </city>
        <city name="Greater Sudbury" lon="-81.01" lat="46.49">
            <university domain="laurentian.ca" label="Laurentian University" englishName="Laurentian University" weborank="1452" wiki="Laurentian University" lon="-80.970492" lat="46.466042"/>
        </city>
        <city name="Guelph" lon="-80.25" lat="43.55">
            <university domain="uoguelph.ca" label="University of Guelph" englishName="University of Guelph" weborank="325" therank="276"/>
        </city>
        <city name="Halifax" lon="-63.588547" lat="44.637523">
            <university domain="dal.ca" label="Dalhousie University" englishName="Dalhousie University" weborank="314" therank="226"/>
        </city>
        <city name="Hamilton, Ontario" lon="-79.873056" lat="43.255278">
            <university domain="mcmaster.ca" label="McMaster Arts and Science" englishName="McMaster University" altName1="McMaster University" weborank="139" therank="65" wiki="McMaster Arts and Science"/>
        </city>
        <city name="Kelowna, British Columbia" lon="-119.493333" lat="49.883611">
            <university domain="okanagan.bc.ca" label="Okanagan College" weborank="2386" wiki="Okanagan College" lon="-119.481111" lat="49.863056"/>
        </city>
        <city name="Kingston, Ontario" lon="-76.5" lat="44.233333">
            <university domain="queensu.ca" label="Queen's School of Environmental Studies" englishName="Queen's University" altName1="Queen's University Kingston" weborank="204" therank="173" wiki="Queen's School of Environmental Studies"/>
        </city>
        <city name="Kitchener, Ontario" lon="-80.483333" lat="43.45">
            <university domain="uwaterloo.ca" label="St. Jerome's University" englishName="University of Waterloo" altName1="University of Waterloo" weborank="110" therank="201" wiki="St. Jerome's University" lon="-80.545556" lat="43.469167"/>
            <university domain="wlu.ca" label="Laurier School of Business" englishName="Wilfrid Laurier University" weborank="1143" wiki="Laurier School of Business"/>
        </city>
        <city name="Lethbridge" lon="-112.832778" lat="49.694167">
            <university domain="uleth.ca" label="University of Lethbridge" englishName="University of Lethbridge" weborank="635"/>
        </city>
        <city name="Moncton" lon="-64.803056" lat="46.115833">
            <university domain="umoncton.ca" label="Université de Moncton" englishName="University of Moncton" nativeName="Université de Moncton" weborank="893" wiki="Université de Moncton" lon="-64.7819" lat="46.105"/>
        </city>
        <city name="Montreal" lon="-73.666667" lat="45.5">
            <university domain="umontreal.ca" label="University of Montreal" englishName="University of Montreal" nativeName="Université de Montréal" weborank="117" therank="104"/>
            <university domain="uqam.ca" label="Université du Québec à Montréal" nativeName="Université du Québec Montréal" weborank="197" wiki="Université du Québec à Montréal" lon="-73.560278" lat="45.513889"/>
            <university domain="concordia.ca" label="Concordia University" englishName="Concordia University Montréal" weborank="412" wiki="Concordia University" lon="-73.577102" lat="45.497406"/>
            <university domain="polymtl.ca" label="École Polytechnique de Montréal" nativeName="École Polytechnique de Montréal" altName1="École Polytechnique de Montréal, Université de Montréal" weborank="821" wiki="École Polytechnique de Montréal" lon="-73.614" lat="45.505"/>
            <university domain="hec.ca" label="HEC Montréal École de Gestion" nativeName="HEC Montréal École de Gestion" altName1="École des Hautes Études Commerciales" weborank="824"/>
            <university domain="etsmtl.ca" label="École de technologie supérieure" nativeName="École de Technologie Superieure" altName1="École de technologie supérieure, Université du Québec" weborank="1907" wiki="École de technologie supérieure" lon="-73.5629" lat="45.4953"/>
        </city>
        <city name="Oshawa, Ontario" lon="-78.85" lat="43.9">
            <university domain="uoit.ca" label="University of Ontario Institute of Technology" englishName="University of Ontario Institute of Technology" weborank="1608" wiki="University of Ontario Institute of Technology" lon="-78.891703" lat="43.944847"/>
            <university domain="durhamcollege.ca" label="Durham College" weborank="4301" wiki="Durham College" lon="-78.896939" lat="43.943931"/>
        </city>
        <city name="Ottawa" lon="-75.69" lat="45.420833">
            <university domain="uottawa.ca" label="University of Ottawa" englishName="University of Ottawa" nativeName="Université d'Ottawa" weborank="255" therank="185"/>
            <university domain="carleton.ca" label="Institute of Criminology and Criminal Justice" englishName="Carleton University" altName1="Carleton University" weborank="289" therank="226" wiki="Institute of Criminology and Criminal Justice"/>
            <university domain="algonquincollege.com" label="Algonquin College" altName1="Algoquin College" weborank="2531" wiki="Algonquin College" lon="-75.759386" lat="45.346936"/>
        </city>
        <city name="Peterborough, Ontario" lon="-78.316667" lat="44.3">
            <university domain="trentu.ca" label="Trent University" englishName="Trent University" weborank="1318" wiki="Trent University" lon="-78.289561" lat="44.357764"/>
        </city>
        <city name="Prince George, British Columbia" lon="-122.749444" lat="53.916944">
            <university domain="unbc.ca" label="University of Northern British Columbia" englishName="University of Northern British Columbia" weborank="1207" wiki="University of Northern British Columbia" lon="-122.813722" lat="53.887333"/>
        </city>
        <city name="Quebec" lon="-71.983333" lat="53.75">
            <university domain="ulaval.ca" label="Université Laval" nativeName="Université Laval" weborank="195"/>
        </city>
        <city name="Quebec City" lon="-71.216667" lat="46.816667">
            <university domain="uquebec.ca" label="Université du Québec" englishName="University of Québec" nativeName="Université du Québec" weborank="885" wiki="Université du Québec"/>
        </city>
        <city name="Red Deer, Alberta" lon="-113.811111" lat="52.268056">
            <university domain="rdc.ab.ca" label="Red Deer College" weborank="4862" wiki="Red Deer College" lon="-113.826967" lat="52.254933"/>
        </city>
        <city name="Regina, Saskatchewan" lon="-104.606667" lat="50.454722">
            <university domain="uregina.ca" label="University of Regina" englishName="University of Regina" weborank="639" wiki="University of Regina" lon="-104.587953" lat="50.415553"/>
        </city>
        <city name="Rimouski" lon="-68.516667" lat="48.433333">
            <university domain="uqar.ca" label="Université du Québec à Rimouski" nativeName="Université du Québec Rimouski" weborank="3415" wiki="Université du Québec à Rimouski" lon="-68.512783" lat="48.452906"/>
        </city>
        <city name="Sackville, New Brunswick" lon="-64.36834" lat="45.89792">
            <university domain="mta.ca" label="Mount Allison University" englishName="Mount Allison University" weborank="1769" wiki="Mount Allison University" lon="-64.377822" lat="45.900519"/>
        </city>
        <city name="Saskatoon" lon="-106.686111" lat="52.139722">
            <university domain="usask.ca" label="Veterinary Medicine  University of Saskatchewan" englishName="University of Saskatchewan" weborank="136" wiki="Veterinary Medicine  University of Saskatchewan" lon="-106.6328" lat="52.129825"/>
        </city>
        <city name="Sherbrooke" lon="-71.883333" lat="45.4">
            <university domain="usherbrooke.ca" label="Université de Sherbrooke" nativeName="Université de Sherbrooke" weborank="520" wiki="Université de Sherbrooke" lon="-71.927661" lat="45.379406"/>
            <university domain="ubishops.ca" label="Bishop's University" englishName="Bishop's University" weborank="2949" wiki="Bishop's University" lon="-71.845464" lat="45.366711"/>
        </city>
        <city name="St. Catharines, Ontario" lon="-79.233333" lat="43.183333">
            <university domain="brocku.ca" label="Brock University Faculty of Business" englishName="Brock University" weborank="651" wiki="Brock University Faculty of Business" lon="-79.249" lat="43.119"/>
            <university domain="niagaracollege.ca" label="Niagara College" weborank="4355" wiki="Niagara College" lon="-79.090533" lat="43.079483"/>
        </city>
        <city name="St. John's, Newfoundland and Labrador" lon="-52.707222" lat="47.5675">
            <university domain="mun.ca" label="Memorial University of Newfoundland" englishName="Memorial University of Newfoundland" weborank="334" wiki="Memorial University of Newfoundland" lon="-52.73265" lat="47.57203"/>
        </city>
        <city name="Toronto" lon="-79.340686" lat="43.716589">
            <university domain="utoronto.ca" label="University of St. Michael's College" englishName="University of Toronto" altName1="University of Toronto" weborank="32" therank="19" wiki="University of St. Michael's College" lon="-79.389722" lat="43.666944"/>
            <university domain="yorku.ca" label="Vanier College at York University" englishName="York University" altName1="York University" weborank="122" therank="276" wiki="Vanier College at York University" lon="-79.502247" lat="43.775533"/>
            <university domain="ryerson.ca" label="Heidelberg Centre" englishName="Ryerson University" altName1="Ryerson Polytechnic University" weborank="587" wiki="Heidelberg Centre"/>
            <university domain="georgebrown.ca" label="George Brown College" weborank="2622" wiki="George Brown College" lon="-79.4107" lat="43.6758"/>
            <university domain="centennialcollege.ca" label="Centennial College" altName1="Centennial College Toronto" weborank="3182" wiki="Centennial College" lon="-79.234561" lat="43.781633"/>
            <university domain="ocad.ca" label="OCAD University" englishName="Ontario College of Art and Design" weborank="4046" wiki="OCAD University" lon="-79.391194" lat="43.653056"/>
        </city>
        <city name="Vancouver" lon="-123.1" lat="49.25">
            <university domain="ubc.ca" label="Liu Institute for Global Issues" englishName="University of British Columbia" altName1="University of British Columbia" weborank="33" therank="22" wiki="Liu Institute for Global Issues"/>
            <university domain="langara.bc.ca" label="Langara College" weborank="4848" wiki="Langara College"/>
        </city>
        <city name="Victoria, British Columbia" lon="-123.365556" lat="48.428611">
            <university domain="uvic.ca" label="Island Medical Program  University of Victoria" englishName="University of Victoria" altName1="University of Victoria British Columbia" weborank="182" therank="177" wiki="Island Medical Program  University of Victoria" lon="-123.311751" lat="48.463325"/>
        </city>
        <city name="Winnipeg, Manitoba" lon="-97.133333" lat="49.9">
            <university domain="umanitoba.ca" label="University of Manitoba" englishName="University of Manitoba" weborank="192" therank="301" wiki="University of Manitoba" lon="-97.132778" lat="49.809444"/>
            <university domain="rrc.mb.ca" label="Red River College" weborank="3120" wiki="Red River College" lon="-97.207881" lat="49.916522"/>
        </city>
        <city name="Wolfville, Nova Scotia" lon="-64.366667" lat="45.083333">
            <university domain="acadiau.ca" label="Acadia University" englishName="Acadia University" weborank="870" wiki="Acadia University" lon="-64.361428" lat="45.091125"/>
        </city>
    </country>
    <country name="Chile" population="17091000" lon="-71.3111268690608" lat="-35.7480467585861">
        <city name="Antofagasta, Chile" lon="-70.4" lat="-23.65">
            <university domain="ucn.cl" label="Catholic University of the North" englishName="Catholic University of the North" nativeName="Universidad Católica del Norte" weborank="2355" wiki="Catholic University of the North"/>
        </city>
        <city name="Concepción, Chile" lon="-73.051369" lat="-36.828194">
            <university domain="udec.cl" label="University of Concepción" englishName="University of Concepción" nativeName="Universidad de Concepción" weborank="574" wiki="University of Concepción" lon="-73.037222" lat="-36.828333"/>
            <university domain="ucsc.cl" label="Catholic University of the Holy Conception" englishName="Catholic University of the Holy Conception" nativeName="Universidad Católica de la Santísima Concepción" weborank="4162" wiki="Catholic University of the Holy Conception"/>
            <university domain="udd.cl" label="Universidad del Desarrollo" nativeName="Universidad del Desarrollo" weborank="4514" wiki="Universidad del Desarrollo"/>
        </city>
        <city name="Iquique, Chile" lon="-70.15" lat="-20.216667">
            <university domain="unap.cl" label="Arturo Prat University" englishName="Arturo Prat University" nativeName="Universidad Arturo Prat" weborank="3506" wiki="Arturo Prat University"/>
        </city>
        <city name="Puente Alto, Chile" lon="-70.566667" lat="-33.616667">
            <university domain="uai.cl" label="Adolfo Ibáñez University" englishName="Adolfo Ibáñez University" nativeName="Universidad Adolfo Ibáñez" weborank="4095" wiki="Adolfo Ibáñez University" lon="-70.518" lat="-33.486"/>
        </city>
        <city name="Punta Arenas, Chile" lon="-70.933333" lat="-53.166667">
            <university domain="umag.cl" label="University of Magallanes" englishName="University of Magallanes" nativeName="Universidad de Magallanes" weborank="4989" wiki="University of Magallanes"/>
        </city>
        <city name="Santiago, Chile" lon="-70.666667" lat="-33.45">
            <university domain="uc.cl" label="Pontifical Catholic University of Chile" englishName="Pontifical Catholic University of Chile" therank="350" wiki="Pontifical Catholic University of Chile" lon="-70.6408" lat="-33.4411"/>
            <university domain="uchile.cl" label="University of Chile" englishName="University of Chile" nativeName="Universidad de Chile" weborank="247" wiki="University of Chile" lon="-70.650986" lat="-33.444397"/>
            <university domain="udp.cl" label="Diego Portales University" englishName="Diego Portales University" nativeName="Universidad Diego Portales" weborank="2537" wiki="Diego Portales University"/>
            <university domain="ucentral.cl" label="Central University of Chile" englishName="Central University of Chile" nativeName="Universidad Central de Chile" weborank="3737" wiki="Central University of Chile" lon="-70.660278" lat="-33.453056"/>
            <university domain="umce.cl" label="Metropolitan University of Educational Sciences" englishName="Metropolitan University of Educational Sciences" nativeName="Universidad Metropolitana de Ciencias de la Educacion" weborank="3776" wiki="Metropolitan University of Educational Sciences"/>
            <university domain="academia.cl" label="Academy of Christian Humanism University" englishName="Academy of Christian Humanism University" nativeName="Universidad Academia de Humanismo Cristiano" weborank="4939" wiki="Academy of Christian Humanism University" lon="-70.6275" lat="-33.4375"/>
        </city>
        <city name="Talca, Chile" lon="-71.666667" lat="-35.433333">
            <university domain="utalca.cl" label="University of Talca" englishName="University of Talca" nativeName="Universidad de Talca" weborank="1434" wiki="University of Talca"/>
        </city>
        <city name="Valdivia, Chile" lon="-73.245833" lat="-39.813889">
            <university domain="uach.cl" label="Southern University of Chile" englishName="Southern University of Chile" nativeName="Universidad Austral de Chile" weborank="1182" wiki="Southern University of Chile" lon="-73.2511" lat="-39.8073"/>
        </city>
        <city name="Valparaíso, Chile" lon="-71.616667" lat="-33.05">
            <university domain="utfsm.cl" label="Federico Santa María Technical University" englishName="Federico Santa María Technical University" nativeName="Universidad Técnica Federico Santa María" weborank="1157" wiki="Federico Santa María Technical University" lon="-71.595079" lat="-33.035021"/>
            <university domain="upla.cl" label="Playa Ancha University of Educational Sciences" englishName="Playa Ancha University of Educational Sciences" nativeName="Universidad de Playa Ancha Valparaiso" weborank="4524" wiki="Playa Ancha University of Educational Sciences" lon="-71.641944" lat="-33.021944"/>
        </city>
    </country>
    <country name="China" population="1338240000" lon="103.797406910216" lat="36.6168735161731" altName1="peoples r china">
        <city name="Beibei District" lon="106.501" lat="29.8892">
            <university domain="swu.edu.cn" label="Southwest University" englishName="Southwest University China" weborank="1698" wiki="Southwest University"/>
        </city>
        <city name="Beijing" lon="116.391667" lat="39.913889">
            <university domain="pku.edu.cn" label="Peking University" englishName="Peking University" weborank="109" therank="49" wiki="Peking University" lon="116.305278" lat="39.989722"/>
            <university domain="tsinghua.edu.cn" label="Tsinghua University" englishName="Tsinghua University" altName1="Tsinghua University China" weborank="197" therank="71" wiki="Tsinghua University" lon="116.326667" lat="40.0"/>
            <university domain="bnu.edu.cn" label="Beijing Normal University" englishName="Beijing Normal University" weborank="349" wiki="Beijing Normal University" lon="116.3625" lat="39.957222"/>
            <university domain="buaa.edu.cn" label="Beihang University" englishName="Beihang University (Beijing University of Aeronautics and Astronautics)" weborank="1025" wiki="Beihang University"/>
            <university domain="cau.edu.cn" label="China Agricultural University" englishName="China Agricultural University" weborank="1048" wiki="China Agricultural University" lon="116.352778" lat="40.0025"/>
            <university domain="bit.edu.cn" label="Beijing Institute of Technology" englishName="Beijing Institute of Technology" weborank="1236" wiki="Beijing Institute of Technology" lon="116.308333" lat="39.957778"/>
            <university domain="bjut.edu.cn" label="Beijing University of Technology" englishName="Beijing University of Technology (Beijing Polytechnic University)" weborank="1282" wiki="Beijing University of Technology"/>
            <university domain="buct.edu.cn" label="Beijing University of Chemical Technology" englishName="Beijing University of Chemical Technology" weborank="1298" wiki="Beijing University of Chemical Technology"/>
            <university domain="njtu.edu.cn" label="Beijing Jiaotong University" englishName="Beijing (Northern) Jiaotong University" weborank="1330" wiki="Beijing Jiaotong University" lon="116.326111" lat="40.000556"/>
            <university domain="cnu.edu.cn" label="Capital Normal University" englishName="Capital Normal University" weborank="1574" wiki="Capital Normal University"/>
            <university domain="ncepu.edu.cn" label="North China Electric Power University" englishName="North China Electric Power University" weborank="1608" wiki="North China Electric Power University"/>
            <university domain="bwu.edu.cn" label="Beijing Materials University" englishName="Beijing Wuzi University (Beijing Materials Institute)" weborank="1756" wiki="Beijing Materials University"/>
            <university domain="bupt.edu.cn" label="Beijing University of Posts and Telecommunications" englishName="Beijing University of Posts and Telecommunications" weborank="1886" wiki="Beijing University of Posts and Telecommunications" lon="116.352" lat="39.9598"/>
            <university domain="cuc.edu.cn" label="Communication University of China" englishName="Communication University of China (Beijing Broadcasting Institute)" weborank="1977" wiki="Communication University of China" lon="116.550162" lat="39.909106"/>
            <university domain="ccmu.edu.cn" label="Capital University of Medical Sciences" englishName="Capital University of Medical Sciences" weborank="2466" wiki="Capital University of Medical Sciences"/>
            <university domain="cueb.edu.cn" label="Capital University of Economics and Business" englishName="Capital University of Economics and Business" weborank="2699" wiki="Capital University of Economics and Business"/>
            <university domain="bfa.edu.cn" label="Beijing Film Academy" weborank="2703" wiki="Beijing Film Academy"/>
            <university domain="cufe.edu.cn" label="Central University of Finance and Economics" englishName="Central University of Finance and Economics" weborank="2712" wiki="Central University of Finance and Economics"/>
            <university domain="blcu.edu.cn" label="Beijing Language and Culture University" englishName="Beijing Language and Culture University" weborank="3073" wiki="Beijing Language and Culture University" lon="116.337778" lat="39.993333"/>
            <university domain="cugb.edu.cn" label="China University of Geosciences" englishName="China University of Geoscience Beijing" weborank="3108" wiki="China University of Geosciences"/>
            <university domain="buu.edu.cn" label="Beijing Union University" englishName="Beijing Union University" weborank="3163" wiki="Beijing Union University"/>
            <university domain="uir.cn" label="University of International Relations" englishName="University of International Relations" weborank="3535" wiki="University of International Relations"/>
            <university domain="ncut.edu.cn" label="North China University of Technology" englishName="North China University of Technology" weborank="3581" wiki="North China University of Technology"/>
            <university domain="bisu.edu.cn" label="Beijing International Studies University" englishName="Beijing International Studies University" weborank="3908" wiki="Beijing International Studies University" lon="116.557699" lat="39.909286"/>
        </city>
        <city name="Changsha" lon="112.972222" lat="28.196111">
            <university domain="csu.edu.cn" label="Central South University" englishName="Central South University (Zhongnan University)" weborank="1163" wiki="Central South University" lon="112.925" lat="28.173"/>
            <university domain="hnu.cn" label="Hunan University" englishName="Hunan University" weborank="1315" wiki="Hunan University"/>
            <university domain="nudt.edu.cn" label="National University of Defense Technology" englishName="National University of Defense Technology (National Defense University)" weborank="1896" wiki="National University of Defense Technology"/>
            <university domain="csust.edu.cn" label="Changsha University of Science and Technology" englishName="Changsha University of Science and Technology" weborank="2826" wiki="Changsha University of Science and Technology"/>
        </city>
        <city name="Changshu" lon="120.6" lat="31.3">
            <university domain="suda.edu.cn" label="Soochow University (Suzhou)" englishName="Soochow University" altName1="Suzhou University" weborank="1133" wiki="Soochow University (Suzhou)"/>
        </city>
        <city name="Chengdu" lon="104.063333" lat="30.659722">
            <university domain="uestc.edu.cn" label="University of Electronic Science and Technology of China" englishName="University of Electronic Science and Technology of China" weborank="1144" wiki="University of Electronic Science and Technology of China"/>
            <university domain="sicnu.edu.cn" label="Sichuan Normal University" englishName="Sichuan Normal University" weborank="2213" wiki="Sichuan Normal University"/>
            <university domain="swufe.edu.cn" label="Southwestern University of Finance and Economics" englishName="Southwestern University of Finance and Economics" altName1="Southwest University of Finance and Economics" weborank="2314" wiki="Southwestern University of Finance and Economics"/>
            <university domain="swpu.edu.cn" label="Southwest Petroleum University" englishName="Southwest Petroleum University" weborank="2982" wiki="Southwest Petroleum University"/>
            <university domain="cdutcm.edu.cn" label="Chengdu University of Traditional Chinese Medicine" englishName="Chengdu University of Traditional Chinese Medicine" weborank="3286" wiki="Chengdu University of Traditional Chinese Medicine"/>
        </city>
        <city name="Chongqing" lon="106.566667" lat="29.558333">
            <university domain="ctbu.edu.cn" label="Chongqing Technology and Business University" englishName="Chongqing Technology and Business University" weborank="2848" wiki="Chongqing Technology and Business University"/>
            <university domain="cqmu.edu.cn" label="Chongqing Medical University" englishName="Chongqing Medical University" weborank="4324" wiki="Chongqing Medical University"/>
        </city>
        <city name="Dalian" lon="121.639167" lat="38.920833">
            <university domain="dlut.edu.cn" label="Dalian University of Technology" englishName="Dalian University of Technology" weborank="1191" wiki="Dalian University of Technology"/>
            <university domain="lnnu.edu.cn" label="Liaoning Normal University" englishName="Liaoning Normal University" weborank="2593" wiki="Liaoning Normal University"/>
        </city>
        <city name="Dongying" lon="118.466667" lat="37.45">
            <university domain="upc.edu.cn" label="China University of Petroleum" englishName="China University of Petroleum" weborank="1884" wiki="China University of Petroleum"/>
        </city>
        <city name="Foshan" lon="113.116667" lat="23.016667">
            <university domain="fosu.edu.cn" label="Foshan University" englishName="Foshan University" weborank="3143" wiki="Foshan University" lon="113.09824" lat="23.025889"/>
        </city>
        <city name="Fushun" lon="123.9" lat="41.866667">
            <university domain="lnpu.edu.cn" label="Liaoning University of Petroleum and Chemical Technology" englishName="Liaoning University of Petroleum and Chemical Technology" weborank="3311" wiki="Liaoning University of Petroleum and Chemical Technology"/>
        </city>
        <city name="Fuzhou, Fujian" lon="119.306389" lat="26.076111">
            <university domain="fzu.edu.cn" label="Fuzhou University" englishName="Fuzhou University" weborank="1359" wiki="Fuzhou University" lon="119.266531" lat="26.0768"/>
            <university domain="fjmu.edu.cn" label="Fujian Medical University" englishName="Fujian Medical University" weborank="2708" wiki="Fujian Medical University"/>
            <university domain="fjut.edu.cn" label="Fujian University of Technology" englishName="Fujian University of Technology" weborank="3753" wiki="Fujian University of Technology"/>
        </city>
        <city name="Guanghan" lon="104.25" lat="30.99">
            <university domain="cafuc.edu.cn" label="Civil Aviation Flight University of China" englishName="Civil Aviation Flight University of China" weborank="4841" wiki="Civil Aviation Flight University of China"/>
        </city>
        <city name="Guangzhou" lon="113.258889" lat="23.128889">
            <university domain="sysu.edu.cn" label="Sun Yat-sen University" englishName="Sun Yat-sen University" altName1="Sun Yat Sen University (Zhongshan University)" weborank="994" therank="276" wiki="Sun Yat-sen University"/>
            <university domain="jnu.edu.cn" label="Jinan University" englishName="Jinan University" weborank="1184" wiki="Jinan University"/>
            <university domain="gdut.edu.cn" label="Guangdong University of Technology" englishName="Guangdong University of Technology" weborank="1333" wiki="Guangdong University of Technology"/>
            <university domain="gzhu.edu.cn" label="Guangzhou University" englishName="Guangzhou University" weborank="1402" wiki="Guangzhou University"/>
            <university domain="scut.edu.cn" label="South China University of Technology" englishName="South China University of Technology" weborank="1805" wiki="South China University of Technology"/>
            <university domain="gdcc.edu.cn" label="Guangdong University of Business Studies" englishName="Guangdong University of Business Studies" weborank="2614" wiki="Guangdong University of Business Studies"/>
            <university domain="gzhtcm.edu.cn" label="Guangzhou University of Chinese Medicine" englishName="Guangzhou University of Traditional Chinese Medicine" weborank="3036" wiki="Guangzhou University of Chinese Medicine"/>
            <university domain="gzarts.edu.cn" label="Guangzhou Academy of Fine Arts" englishName="Guangzhou Academy of Fine Arts" weborank="4336" wiki="Guangzhou Academy of Fine Arts"/>
        </city>
        <city name="Guilin" lon="110.291944" lat="25.270556">
            <university domain="gliet.edu.cn" label="Guilin University of Electronic Technology" englishName="Guilin University of Electronic Technology" weborank="2953" wiki="Guilin University of Electronic Technology"/>
        </city>
        <city name="Guiyang" lon="106.716667" lat="26.583333">
            <university domain="gznu.edu.cn" label="Guizhou Normal University" englishName="Guizhou Normal University" weborank="4273" wiki="Guizhou Normal University"/>
        </city>
        <city name="Haerbin" lon="126.633333" lat="45.75">
            <university domain="hit.edu.cn" label="Harbin Institute of Technology" englishName="Harbin Institute of Technology" weborank="1040" therank="350"/>
            <university domain="hrbeu.edu.cn" label="Harbin Engineering University" englishName="Harbin Engineering University" weborank="1300" wiki="Harbin Engineering University" lon="126.675" lat="45.772222"/>
            <university domain="nefu.edu.cn" label="Northeast Forestry University" englishName="Northeast Forestry University" weborank="1524" wiki="Northeast Forestry University"/>
            <university domain="hrbust.edu.cn" label="Harbin University of Science and Technology" englishName="Harbin University of Science and Technology" weborank="2123" wiki="Harbin University of Science and Technology"/>
            <university domain="hrbnu.edu.cn" label="Harbin Normal University" englishName="Harbin Normal University" weborank="2493" wiki="Harbin Normal University"/>
            <university domain="hlju.edu.cn" label="Heilongjiang University" englishName="Heilongjiang University" weborank="3789" wiki="Heilongjiang University"/>
        </city>
        <city name="Haikou" lon="110.341667" lat="20.042778">
            <university domain="hainu.edu.cn" label="Hainan University" englishName="Hainan University (South China Tropical Agricultural University)" weborank="1866" wiki="Hainan University" lon="110.321389" lat="20.060556"/>
        </city>
        <city name="Hangzhou" lon="120.166667" lat="30.25">
            <university domain="zju.edu.cn" label="Zhejiang University" englishName="Zhejiang University" altName1="Zhejiang University (National Che Kiang University)" weborank="228" therank="301" wiki="Zhejiang University" lon="120.120833" lat="30.263611"/>
            <university domain="hdu.edu.cn" label="Hangzhou Dianzi University" englishName="Hangzhou Dianzi University" weborank="1608" wiki="Hangzhou Dianzi University"/>
            <university domain="zjgsu.edu.cn" label="Zhejiang Gongshang University" englishName="Zhejiang Gongshang University" weborank="1839" wiki="Zhejiang Gongshang University"/>
            <university domain="zjut.edu.cn" label="Zhejiang University of Technology" englishName="Zhejiang University of Technology" weborank="2257" wiki="Zhejiang University of Technology"/>
            <university domain="zust.edu.cn" label="Zhejiang University of Science and Technology" englishName="Zhejiang University of Science and Technology" weborank="3825" wiki="Zhejiang University of Science and Technology"/>
        </city>
        <city name="Hefei" lon="117.283333" lat="31.866667">
            <university domain="ustc.edu.cn" label="University of Science and Technology of China" englishName="University of Science and Technology of China" weborank="2193" therank="192" wiki="University of Science and Technology of China"/>
            <university domain="ahmu.edu.cn" label="Anhui Medical University" englishName="Anhui Medical University" weborank="2257" wiki="Anhui Medical University"/>
        </city>
        <city name="Huhehaote" lon="111.65" lat="40.816667">
            <university domain="imu.edu.cn" label="Inner Mongolia University" englishName="Inner Mongolia University" weborank="3693" wiki="Inner Mongolia University"/>
        </city>
        <city name="Ji'an, Jiangxi" lon="115.0" lat="27.133333">
            <university domain="jgsu.edu.cn" label="Jinggangshan University" englishName="Jinggangshan University" weborank="4643" wiki="Jinggangshan University" lon="115.02145" lat="27.11335"/>
        </city>
        <city name="Jinan" lon="116.983333" lat="36.666667">
            <university domain="sdu.edu.cn" label="Shandong University" englishName="Shandong University" weborank="539" wiki="Shandong University" lon="117.053983" lat="36.671844"/>
            <university domain="sdie.edu.cn" label="Shandong Economic University" englishName="Shandong Economic University" weborank="3702" wiki="Shandong Economic University"/>
        </city>
        <city name="Jinhua" lon="119.65" lat="29.083333">
            <university domain="zjnu.edu.cn" label="Zhejiang Normal University" englishName="Zhejiang Normal University" weborank="1938" wiki="Zhejiang Normal University"/>
        </city>
        <city name="Jinzhou" lon="121.133333" lat="41.116667">
            <university domain="bhu.edu.cn" label="Bohai University" englishName="Bohai University" weborank="3792" wiki="Bohai University"/>
        </city>
        <city name="Kaifeng" lon="114.348056" lat="34.791111">
            <university domain="henu.edu.cn" label="Henan University" englishName="Henan University" weborank="1482" wiki="Henan University" lon="114.363694" lat="34.812722"/>
        </city>
        <city name="Lanzhou" lon="103.8" lat="36.033333">
            <university domain="lzu.edu.cn" label="Lanzhou University" englishName="Lanzhou University" weborank="1014" wiki="Lanzhou University"/>
            <university domain="lut.cn" label="Lanzhou University of Technology" englishName="Lanzhou University of Technology (Gansu University of Technology)" weborank="3549" wiki="Lanzhou University of Technology"/>
        </city>
        <city name="Liaocheng" lon="115.983333" lat="36.45">
            <university domain="lcu.edu.cn" label="Liaocheng University" englishName="Liaocheng University" weborank="1708" wiki="Liaocheng University"/>
        </city>
        <city name="Liuzhou" lon="109.383333" lat="24.316667">
            <university domain="gxut.edu.cn" label="Guangxi University of Technology" englishName="Guangxi University of Technology" weborank="3539" wiki="Guangxi University of Technology"/>
        </city>
        <city name="Luoyang" lon="112.442222" lat="34.669722">
            <university domain="haust.edu.cn" label="Henan University of Science and Technology" englishName="Henan University of Science and Technology" weborank="3438" wiki="Henan University of Science and Technology"/>
        </city>
        <city name="Maanshan" lon="118.35" lat="31.7">
            <university domain="ahut.edu.cn" label="Anhui University of Technology" englishName="Anhui University of Technology" weborank="3702" wiki="Anhui University of Technology"/>
        </city>
        <city name="Mei County, Guangdong" lon="116.119444" lat="24.321389">
            <university domain="jyu.edu.cn" label="Jiaying University" englishName="Jiaying University" weborank="4148" wiki="Jiaying University"/>
        </city>
        <city name="Nanchang" lon="115.883333" lat="28.683333">
            <university domain="ncu.edu.cn" label="Nanchang University" englishName="Nanchang University" weborank="1731" wiki="Nanchang University"/>
            <university domain="jxau.edu.cn" label="Jiangxi Agricultural University" englishName="Jiangxi Agricultural University" weborank="3093" wiki="Jiangxi Agricultural University"/>
        </city>
        <city name="Nanchong" lon="106.233333" lat="31.25">
            <university domain="cwnu.edu.cn" label="China West Normal University" englishName="China West Normal University" weborank="3714" wiki="China West Normal University"/>
        </city>
        <city name="Nanjing" lon="118.766667" lat="32.05">
            <university domain="nju.edu.cn" label="Nanjing University" englishName="Nanjing University" weborank="353" therank="251" wiki="Nanjing University" lon="118.775" lat="32.056111"/>
            <university domain="nuaa.edu.cn" label="Nanjing Aeronautics and Astronautics University" englishName="Nanjing University of Aeronautics and Astronautics" weborank="1233" wiki="Nanjing Aeronautics and Astronautics University" lon="118.813808" lat="32.036006"/>
            <university domain="njau.edu.cn" label="Nanjing Agricultural University" englishName="Nanjing Agricultural University" weborank="1371" wiki="Nanjing Agricultural University" lon="118.836672" lat="32.031964"/>
            <university domain="njut.edu.cn" label="Nanjing University of Technology" englishName="Nanjing University of Technology" weborank="1517" wiki="Nanjing University of Technology" lon="118.771964" lat="32.078711"/>
            <university domain="seu.edu.cn" label="Southeast University" englishName="Southeast University China" weborank="1548" wiki="Southeast University" lon="118.788889" lat="32.057778"/>
            <university domain="njupt.edu.cn" label="Nanjing University of Posts and Telecommunications" englishName="Nanjing University of Posts and Telecommunications" weborank="1828" wiki="Nanjing University of Posts and Telecommunications"/>
            <university domain="nuist.edu.cn" label="Nanjing University of Information Science and Technology" englishName="Nanjing University of Information Science and Technology (ex-Institute of Meteorology)" weborank="1875" wiki="Nanjing University of Information Science and Technology" lon="118.721667" lat="32.207222"/>
            <university domain="cpu.edu.cn" label="China Pharmaceutical University" englishName="China Pharmaceutical University" altName1="China Pharmaceutical University Nanjing" weborank="2495" wiki="China Pharmaceutical University" lon="118.774178" lat="32.074594"/>
            <university domain="njue.edu.cn" label="Nanjing University of Finance and Economics" englishName="Nanjing University of Finance and Economics" altName1="Nanjing University of Economics" weborank="2990" wiki="Nanjing University of Finance and Economics" lon="118.754572" lat="32.088033"/>
        </city>
        <city name="Nanning" lon="108.316667" lat="22.816667">
            <university domain="gxu.edu.cn" label="Guangxi University" englishName="Guangxi University" weborank="1410" wiki="Guangxi University"/>
            <university domain="gxun.edu.cn" label="Guangxi University for Nationalities" englishName="Guangxi University for Nationalities" weborank="3025" wiki="Guangxi University for Nationalities"/>
        </city>
        <city name="Nantong" lon="120.833333" lat="32.0">
            <university domain="ntu.edu.cn" label="Nantong University" englishName="Nantong University" weborank="1519" wiki="Nantong University"/>
        </city>
        <city name="Ningbo" lon="121.55" lat="29.866667">
            <university domain="nottingham.edu.cn" label="University of Nottingham Ningbo, China" englishName="Nottingham University Ningbo China" weborank="3331" wiki="University of Nottingham Ningbo, China" lon="121.5592" lat="29.8022"/>
        </city>
        <city name="Qingdao" lon="120.383333" lat="36.066667">
            <university domain="ouc.edu.cn" label="Ocean University of China" englishName="Ocean University of China" weborank="1304" wiki="Ocean University of China"/>
        </city>
        <city name="Quanzhou" lon="118.583333" lat="24.916667">
            <university domain="hqu.edu.cn" label="Huaqiao University" englishName="Huaqiao University" altName1="Huaqiao University Quanzhuo" weborank="1630" wiki="Huaqiao University" lon="118.644104" lat="25.142798"/>
            <university domain="qztc.edu.cn" label="Quanzhou Normal University" englishName="Quanzhou Normal University" weborank="3908" wiki="Quanzhou Normal University" lon="118.667428" lat="24.865656"/>
        </city>
        <city name="Shanghai" lon="121.5" lat="31.2">
            <university domain="sjtu.edu.cn" label="Shanghai Jiao Tong University" englishName="Shanghai Jiao Tong University" weborank="167" therank="301" wiki="Shanghai Jiao Tong University" lon="121.429722" lat="31.200833"/>
            <university domain="fudan.edu.cn" label="Fudan University" englishName="Fudan University" altName1="Fudan University (Shanghai Medical University)" weborank="259" therank="226" wiki="Fudan University" lon="121.499167" lat="31.298889"/>
            <university domain="ecnu.edu.cn" label="East China Normal University" englishName="East China Normal University" weborank="573"/>
            <university domain="shu.edu.cn" label="Shanghai University" englishName="Shanghai University" weborank="1114" wiki="Shanghai University" lon="121.387222" lat="31.318333"/>
            <university domain="ecust.edu.cn" label="East China University of Science and Technology" englishName="East China University of Science and Technology" weborank="1223" wiki="East China University of Science and Technology"/>
            <university domain="tongji.edu.cn" label="Tongji University" englishName="Tongji University" weborank="1492" wiki="Tongji University"/>
            <university domain="shufe.edu.cn" label="Shanghai University of Finance and Economics" englishName="Shanghai University of Finance and Economics" weborank="1714" wiki="Shanghai University of Finance and Economics"/>
            <university domain="ceibs.edu" label="China Europe International Business School" weborank="2208" wiki="China Europe International Business School"/>
            <university domain="ecupl.edu.cn" label="East China University of Political Science and Law" englishName="East China University of Politics and Law" weborank="2951" wiki="East China University of Political Science and Law" lon="121.414" lat="31.2256"/>
            <university domain="smmu.edu.cn" label="Second Military Medical University" englishName="Second Military Medical University" altName1="2nd Military Medical University" weborank="3322" wiki="Second Military Medical University"/>
            <university domain="shiep.edu.cn" label="Shanghai University of Electric Power" englishName="Shanghai University of Electric Power" weborank="3693" wiki="Shanghai University of Electric Power"/>
            <university domain="sues.edu.cn" label="Shanghai University of Engineering Sciences" englishName="Shanghai University of Engineering Science" weborank="3814" wiki="Shanghai University of Engineering Sciences"/>
        </city>
        <city name="Shenyang" lon="123.883333" lat="41.733333">
            <university domain="cmu.edu.cn" label="China Medical University (PRC)" englishName="China Medical University Shenyang" weborank="1559" wiki="China Medical University (PRC)"/>
        </city>
        <city name="Shijiazhuang" lon="114.483333" lat="38.066667">
            <university domain="hebust.edu.cn" label="Hebei University of Science and Technology" englishName="Hebei University of Science and Technology" weborank="2577" wiki="Hebei University of Science and Technology"/>
            <university domain="hebmu.edu.cn" label="Hebei Medical University" englishName="Hebei Medical University" weborank="4363" wiki="Hebei Medical University"/>
        </city>
        <city name="Tai'an" lon="117.116667" lat="36.166667">
            <university domain="sdau.edu.cn" label="Shandong Agricultural University" englishName="Shandong Agricultural University" weborank="1711" wiki="Shandong Agricultural University"/>
        </city>
        <city name="Taiyuan" lon="112.560278" lat="37.869444">
            <university domain="tyut.edu.cn" label="Taiyuan University of Technology" englishName="Taiyuan University of Technology" weborank="1597" wiki="Taiyuan University of Technology"/>
            <university domain="nuc.edu.cn" label="North University of China" englishName="North University of China" weborank="1604" wiki="North University of China" lon="112.436" lat="38.0094"/>
            <university domain="sxu.edu.cn" label="Shanxi University" englishName="Shanxi University" weborank="1628" wiki="Shanxi University"/>
            <university domain="tyust.edu.cn" label="Taiyuan University of Science and Technology" englishName="Taiyuan University of Sciences and Technology (Heavy Machinery Institute)" weborank="3667" wiki="Taiyuan University of Science and Technology"/>
            <university domain="sxmu.edu.cn" label="Shanxi Medical University" englishName="Shanxi Medical University" weborank="4939" wiki="Shanxi Medical University"/>
        </city>
        <city name="Tianjin" lon="117.183333" lat="39.133333">
            <university domain="nankai.edu.cn" label="Nankai University" englishName="Nankai University" weborank="1014" wiki="Nankai University" lon="117.164722" lat="39.101111"/>
            <university domain="tju.edu.cn" label="Tianjin University" englishName="Tianjin University" weborank="1116" wiki="Tianjin University"/>
            <university domain="hebut.edu.cn" label="Hebei University of Technology" englishName="Hebei University of Technology" weborank="2178" wiki="Hebei University of Technology"/>
            <university domain="tjufe.edu.cn" label="Tianjin University of Finance" englishName="Tianjin University of Finance and Economics" weborank="2756" wiki="Tianjin University of Finance"/>
            <university domain="tjut.edu.cn" label="Tianjin University of Technology" englishName="Tianjin University of Technology" weborank="2987" wiki="Tianjin University of Technology" lon="117.144342" lat="39.085769"/>
        </city>
        <city name="Weifang" lon="119.1" lat="36.716667">
            <university domain="wfu.edu.cn" label="Weifang University" englishName="Weifang University" weborank="4389" wiki="Weifang University"/>
        </city>
        <city name="Wenzhou" lon="120.7" lat="28.0">
            <university domain="wzu.edu.cn" label="Wenzhou University" englishName="Wenzhou University" weborank="2204" wiki="Wenzhou University"/>
        </city>
        <city name="Wuhan" lon="114.283333" lat="30.583333">
            <university domain="whu.edu.cn" label="Wuhan University" englishName="Wuhan University" weborank="1005" therank="350" wiki="Wuhan University" lon="114.361111" lat="30.540833"/>
            <university domain="hust.edu.cn" label="Huazhong University of Science and Technology" englishName="Huazhong University of Science and Technology" weborank="1041" wiki="Huazhong University of Science and Technology"/>
            <university domain="whut.edu.cn" label="Wuhan University of Technology" englishName="Wuhan University of Technology" weborank="1086" wiki="Wuhan University of Technology"/>
            <university domain="ccnu.edu.cn" label="Huazhong Normal University" englishName="Huazhong (Central China) Normal University" altName1="Central China Normal University" weborank="1117" wiki="Huazhong Normal University"/>
            <university domain="hubu.edu.cn" label="Hubei University" englishName="Hubei University" weborank="1910" wiki="Hubei University"/>
            <university domain="wust.edu.cn" label="Wuhan University of Science and Technology" englishName="Wuhan University of Science and Technology" weborank="1950" wiki="Wuhan University of Science and Technology"/>
            <university domain="wit.edu.cn" label="Wuhan Institute of Technology" englishName="Wuhan Institute of Technology (Institute of Chemical Technology)" weborank="2286" wiki="Wuhan Institute of Technology"/>
            <university domain="znufe.edu.cn" label="Zhongnan University of Economics and Law" englishName="Zhongnan University of Finance and Economics" weborank="3784" wiki="Zhongnan University of Economics and Law"/>
        </city>
        <city name="Wuxi" lon="120.3" lat="31.566667">
            <university domain="jiangnan.edu.cn" label="Jiangnan University" englishName="Jiangnan University" weborank="1369" wiki="Jiangnan University"/>
        </city>
        <city name="Xian" lon="108.9" lat="34.266667">
            <university domain="xjtu.edu.cn" label="Xi'an Jiaotong University" englishName="Xi'An Jiaotong University" weborank="1004" wiki="Xi'an Jiaotong University"/>
            <university domain="nwpu.edu.cn" label="Northwestern Polytechnical University" englishName="Northwestern Polytechnical University" altName1="Northwest Polytechnical University Xi'an" weborank="1305" wiki="Northwestern Polytechnical University"/>
            <university domain="nwu.edu.cn" label="Northwest University (China)" englishName="Northwest University China" altName1="Northwest University Xi'an" weborank="1736" wiki="Northwest University (China)"/>
            <university domain="xauat.edu.cn" label="Xi'an University of Architecture and Technology" englishName="Xi'An University of Architecture and Technology" weborank="2081" wiki="Xi'an University of Architecture and Technology"/>
        </city>
        <city name="Xiangtan" lon="112.9" lat="27.85">
            <university domain="hnie.edu.cn" label="Hunan Institute of Engineering" englishName="Hunan Institute of Engineering" weborank="4284" wiki="Hunan Institute of Engineering"/>
        </city>
        <city name="Xuzhou" lon="117.166667" lat="34.266667">
            <university domain="cumt.edu.cn" label="China University of Mining and Technology" englishName="China University of Mining and Technology" altName1="China University of Mining Technology - Xuzhou" weborank="1278" wiki="China University of Mining and Technology"/>
            <university domain="xznu.edu.cn" label="Xuzhou Normal University" englishName="Xuzhou Normal University" weborank="2992" wiki="Xuzhou Normal University"/>
            <university domain="xzmc.edu.cn" label="Xuzhou Medical College" weborank="4214" wiki="Xuzhou Medical College"/>
        </city>
        <city name="Yanji" lon="129.5" lat="42.9">
            <university domain="yust.edu" label="Yanbian University of Science and Technology" englishName="Yanbian University of Science and Technology" weborank="4759" wiki="Yanbian University of Science and Technology"/>
        </city>
        <city name="Yantai" lon="121.266667" lat="37.4">
            <university domain="ytu.edu.cn" label="Yantai University" englishName="Yantai University" weborank="1847" wiki="Yantai University"/>
        </city>
        <city name="Yichang" lon="111.283333" lat="30.716667">
            <university domain="ctgu.edu.cn" label="China Three Gorges University" englishName="China Three Gorges University" weborank="3344" wiki="China Three Gorges University"/>
        </city>
        <city name="Yinchuan" lon="106.266667" lat="38.466667">
            <university domain="nxu.edu.cn" label="Ningxia University" englishName="Ningxia University" weborank="3473" wiki="Ningxia University"/>
        </city>
        <city name="Zhanjiang" lon="110.4" lat="21.2">
            <university domain="gdou.edu.cn" label="Guangdong Ocean University" englishName="Guangdong Ocean University" weborank="3028" wiki="Guangdong Ocean University"/>
        </city>
        <city name="Zhengzhou" lon="113.65" lat="34.766667">
            <university domain="zzu.edu.cn" label="Zhengzhou University" englishName="Zhengzhou University" weborank="1289" wiki="Zhengzhou University"/>
            <university domain="haut.edu.cn" label="Henan University of Technology" englishName="Henan University of Technology" weborank="3322" wiki="Henan University of Technology"/>
        </city>
        <city name="Zhenjiang" lon="119.416667" lat="32.2">
            <university domain="ujs.edu.cn" label="Jiangsu University" englishName="Jiangsu University" weborank="1748" wiki="Jiangsu University"/>
        </city>
    </country>
    <country name="Colombia" population="45496000" lon="-73.080710027398" lat="3.91394648034222">
        <city name="Bucaramanga" lon="-73.0" lat="7.133333">
            <university domain="uis.edu.co" label="Industrial University of Santander" englishName="Industrial University of Santander" nativeName="Universidad Industrial de Santander" weborank="1423" wiki="Industrial University of Santander" lon="-73.120967" lat="7.140697"/>
            <university domain="unab.edu.co" label="Autonomous University of Bucaramanga" englishName="Autonomous University of Bucaramanga" nativeName="Universidad Autónoma de Bucaramanga" weborank="2998" wiki="Autonomous University of Bucaramanga"/>
        </city>
        <city name="Cali" lon="-76.522222" lat="3.420556">
            <university domain="univalle.edu.co" label="University of Valle" englishName="University of Valle" nativeName="Universidad del Valle" altName1="Universidad del Valle del Cauca" weborank="1049" wiki="University of Valle" lon="-76.534453" lat="3.375011"/>
        </city>
        <city name="Chía, Cundinamarca" lon="-74.05" lat="4.85">
            <university domain="unisabana.edu.co" label="University of the Savannah" englishName="University of the Savannah" nativeName="Universidad de la Sabana" weborank="2328" wiki="University of the Savannah"/>
        </city>
        <city name="Ibagué" lon="-75.233333" lat="4.433333">
            <university domain="ut.edu.co" label="University of Tolima" englishName="University of Tolima" nativeName="Universidad del Tolima" weborank="3741" wiki="University of Tolima"/>
        </city>
        <city name="Manizales" lon="-75.55" lat="5.1">
            <university domain="ucaldas.edu.co" label="University of Caldas" englishName="University of Caldas" nativeName="Universidad de Caldas" weborank="3108" wiki="University of Caldas"/>
        </city>
        <city name="Medellín" lon="-75.575136" lat="6.235925">
            <university domain="udea.edu.co" label="University of Antioquia" englishName="University of Antioquia" nativeName="Universidad de Antioquia" weborank="640" wiki="University of Antioquia" lon="-75.568389" lat="6.267417"/>
            <university domain="eafit.edu.co" label="EAFIT University" englishName="EAFIT University" nativeName="Universidad EAFIT" weborank="1748" wiki="EAFIT University"/>
            <university domain="upb.edu.co" label="Pontifical Bolivarian University" englishName="Pontifical Bolivarian University" nativeName="Universidad Pontificia Bolívariana" weborank="2088" wiki="Pontifical Bolivarian University"/>
        </city>
        <city name="Pamplona, Colombia" lon="-72.6525" lat="7.378056">
            <university domain="unipamplona.edu.co" label="University of Pamplona" englishName="University of Pamplona" nativeName="Universidad de Pamplona" weborank="4414" wiki="University of Pamplona"/>
        </city>
        <city name="Popayán" lon="-76.616667" lat="2.45">
            <university domain="unicauca.edu.co" label="University of Cauca" englishName="University of Cauca" nativeName="Universidad del Cauca" weborank="1515" wiki="University of Cauca"/>
        </city>
        <city name="Santa Fe de Bogotá" lon="-74.075833" lat="4.598056">
            <university domain="udistrital.edu.co" label="District University of Bogotá" englishName="District University of Bogotá" nativeName="Universidad Distrital Francisco José de Caldas" weborank="2373" wiki="District University of Bogotá" lon="-74.065278" lat="4.628056"/>
            <university domain="uexternado.edu.co" label="Universidad Externado de Colombia" nativeName="Universidad Externado de Colombia" weborank="2676" wiki="Universidad Externado de Colombia" lon="-74.06836" lat="4.595803"/>
            <university domain="pedagogica.edu.co" label="National Pedagogic University (Colombia)" englishName="National Pedagogic University (Colombia)" nativeName="Universidad Pedagógica Nacional Bogotá" weborank="3296" wiki="National Pedagogic University (Colombia)" lon="-74.0588" lat="4.65814"/>
            <university domain="umng.edu.co" label="Military University Nueva Granada" englishName="Military University Nueva Granada" nativeName="Universidad Militar Nueva Granada" weborank="3841" wiki="Military University Nueva Granada" lon="-74.0419" lat="4.68307"/>
        </city>
        <city name="Santa Marta" lon="-74.205278" lat="11.241944">
            <university domain="unimagdalena.edu.co" label="University of Magdalena" englishName="University of Magdalena" nativeName="Universidad del Magdalena" weborank="4102" wiki="University of Magdalena"/>
        </city>
    </country>
    <country name="Costa Rica" population="4579000" lon="-84.1920878574861" lat="9.97634240035261">
        <city name="Alajuela" lon="-84.216667" lat="10.016667">
            <university domain="incae.edu" label="INCAE" altName1="INCAE Business School" weborank="3705" wiki="INCAE"/>
        </city>
    </country>
    <country name="Croatia" population="4435056" lon="16.4238936519414" lat="45.1594458192101">
        <city name="Osijek" lon="18.679589" lat="45.557531">
            <university domain="unios.hr" label="University of Osijek" englishName="Josip Juraj Strossmayer University of Osijek" weborank="3112" wiki="University of Osijek" lon="18.696111" lat="45.561111"/>
        </city>
